$GPGGA,084935.00,2232.6706239,N,11406.2752992,E,2,06,5.8,12.3588,M,-2.855,M,02,3572*78
$GPRMC,084935.00,A,2232.6706239,N,11406.2752992,E,017.339,262.9,040719,0.0,W,D*26
$GPGGA,084936.00,2232.6687700,N,11406.2697023,E,2,06,5.8,10.3061,M,-2.855,M,02,3572*77
$GPRMC,084936.00,A,2232.6687700,N,11406.2697023,E,019.252,263.1,040719,0.0,W,D*22
$GPGGA,084937.00,2232.6689143,N,11406.2636281,E,1,07,2.9,13.5278,M,-2.855,M,,3572*71
$GPRMC,084937.00,A,2232.6689143,N,11406.2636281,E,020.317,262.9,040719,0.0,W,A*2B
$GPGGA,084938.00,2232.6680659,N,11406.2573498,E,1,06,3.1,13.1921,M,-2.856,M,,3572*7F
$GPRMC,084938.00,A,2232.6680659,N,11406.2573498,E,020.738,259.5,040719,0.0,W,A*20
$GPGGA,084939.00,2232.6686202,N,11406.2519054,E,1,06,3.0,13.8290,M,-2.856,M,,3572*73
$GPRMC,084939.00,A,2232.6686202,N,11406.2519054,E,019.846,261.9,040719,0.0,W,A*2E
$GPGGA,084940.00,2232.7929566,N,11406.2499752,E,1,07,4.0,101.6823,M,-2.860,M,,3572*46
$GPRMC,084940.00,A,2232.7929566,N,11406.2499752,E,020.257,262.7,040719,0.0,W,A*2B
$GPGGA,084941.00,2232.7298997,N,11406.2417245,E,2,06,5.3,75.3405,M,-2.859,M,02,3572*76
$GPRMC,084941.00,A,2232.7298997,N,11406.2417245,E,021.165,256.5,040719,0.0,W,D*2F
$GPGGA,084942.00,2232.6604158,N,11406.2328485,E,5,07,6.8,8.7113,M,-2.857,M,02,3572*43
$GPRMC,084942.00,A,2232.6604158,N,11406.2328485,E,021.135,257.2,040719,0.0,W,D*25
$GPGGA,084943.00,2232.6587620,N,11406.2265981,E,5,07,6.8,8.6997,M,-2.857,M,02,3572*46
$GPRMC,084943.00,A,2232.6587620,N,11406.2265981,E,020.969,256.2,040719,0.0,W,D*24
$GPGGA,084944.00,2232.6724132,N,11406.1985972,E,1,10,1.2,78.2370,M,-2.860,M,,3572*7D
$GPRMC,084944.00,A,2232.6724132,N,11406.1985972,E,021.145,253.9,040719,0.0,W,A*2A
$GPGGA,084945.00,2232.6708059,N,11406.1920232,E,1,10,1.2,78.6693,M,-2.860,M,,3572*72
$GPRMC,084945.00,A,2232.6708059,N,11406.1920232,E,021.278,254.5,040719,0.0,W,A*2F
$GPGGA,084946.00,2232.6539266,N,11406.2081216,E,2,07,4.9,7.1093,M,-2.858,M,02,3572*43
$GPRMC,084946.00,A,2232.6539266,N,11406.2081216,E,021.463,256.1,040719,0.0,W,D*2A
$GPGGA,084947.00,2232.6527597,N,11406.2016715,E,5,08,4.9,7.8643,M,-2.859,M,02,3572*47
$GPRMC,084947.00,A,2232.6527597,N,11406.2016715,E,022.121,256.1,040719,0.0,W,D*25
$GPGGA,084948.00,2232.6516306,N,11406.1948422,E,0,05,0.0,7.2899,M,-2.859,M,,*45
$GPRMC,084948.00,V,2232.6516306,N,11406.1948422,E,021.439,257.8,040719,0.0,W,A*35
$GPGGA,084949.00,2232.6511089,N,11406.1930694,E,0,00,0.0,2.4121,M,-2.859,M,,*4B
$GPRMC,084949.00,V,2232.6511089,N,11406.1930694,E,022.519,257.7,040719,0.0,W,A*38
$GPGGA,084950.00,2232.6511089,N,11406.1930694,E,0,01,0.0,2.4121,M,-2.859,M,,*42
$GPRMC,084950.00,V,2232.6511089,N,11406.1930694,E,022.519,257.7,040719,0.0,W,A*30
$GPGGA,084951.00,2232.6479281,N,11406.1747031,E,0,05,0.0,6.8981,M,-2.860,M,,*45
$GPRMC,084951.00,V,2232.6479281,N,11406.1747031,E,023.381,256.4,040719,0.0,W,A*37
$GPGGA,084952.00,2232.6454183,N,11406.1684364,E,5,09,4.8,5.9038,M,-2.861,M,02,3572*49
$GPRMC,084952.00,A,2232.6454183,N,11406.1684364,E,023.370,256.0,040719,0.0,W,D*2F
$GPGGA,084953.00,2232.6440100,N,11406.1616458,E,5,08,4.7,6.1855,M,-2.861,M,02,3572*43
$GPRMC,084953.00,A,2232.6440100,N,11406.1616458,E,023.534,256.8,040719,0.0,W,D*2D
$GPGGA,084954.00,2232.6426562,N,11406.1547844,E,5,08,4.7,6.6951,M,-2.861,M,02,3572*40
$GPRMC,084954.00,A,2232.6426562,N,11406.1547844,E,023.660,257.6,040719,0.0,W,D*21
$GPGGA,084955.00,2232.6412961,N,11406.1477919,E,5,08,4.8,7.0648,M,-2.862,M,02,3572*4E
$GPRMC,084955.00,A,2232.6412961,N,11406.1477919,E,023.972,257.6,040719,0.0,W,D*2F
$GPGGA,084956.00,2232.6403640,N,11406.1409298,E,1,06,1.6,12.8088,M,-2.862,M,,3572*7F
$GPRMC,084956.00,A,2232.6403640,N,11406.1409298,E,024.009,257.6,040719,0.0,W,A*2C
$GPGGA,084957.00,2232.6387893,N,11406.1338108,E,5,07,4.8,9.9255,M,-2.863,M,02,3572*4E
$GPRMC,084957.00,A,2232.6387893,N,11406.1338108,E,023.935,257.4,040719,0.0,W,D*2F
$GPGGA,084958.00,2232.6371564,N,11406.1267053,E,5,08,4.8,9.9879,M,-2.863,M,02,3572*42
$GPRMC,084958.00,A,2232.6371564,N,11406.1267053,E,023.840,257.3,040719,0.0,W,D*2C
$GPGGA,084959.00,2232.6357695,N,11406.1196968,E,5,07,5.2,10.0511,M,-2.863,M,02,3572*70
$GPRMC,084959.00,A,2232.6357695,N,11406.1196968,E,023.824,257.6,040719,0.0,W,D*2F
$GPGGA,085000.00,2232.6349436,N,11406.1120102,E,1,07,1.5,12.8952,M,-2.864,M,,3572*7A
$GPRMC,085000.00,A,2232.6349436,N,11406.1120102,E,023.785,257.5,040719,0.0,W,A*24
$GPGGA,085001.00,2232.6331735,N,11406.1059598,E,1,06,2.6,10.6664,M,-2.864,M,,3572*7B
$GPRMC,085001.00,A,2232.6331735,N,11406.1059598,E,023.682,257.8,040719,0.0,W,A*29
$GPGGA,085002.00,2232.6327376,N,11406.0975386,E,1,07,1.9,15.3969,M,-2.865,M,,3572*7D
$GPRMC,085002.00,A,2232.6327376,N,11406.0975386,E,022.517,255.4,040719,0.0,W,A*21
$GPGGA,085003.00,2232.6311143,N,11406.0915238,E,1,08,1.4,13.1675,M,-2.865,M,,3572*7B
$GPRMC,085003.00,A,2232.6311143,N,11406.0915238,E,022.337,256.8,040719,0.0,W,A*28
$GPGGA,085004.00,2232.6288995,N,11406.0856023,E,5,07,5.6,9.8904,M,-2.865,M,02,3572*44
$GPRMC,085004.00,A,2232.6288995,N,11406.0856023,E,022.263,258.3,040719,0.0,W,D*23
$GPGGA,085005.00,2232.6283923,N,11406.0790340,E,2,06,4.2,9.9570,M,-2.866,M,02,3572*4E
$GPRMC,085005.00,A,2232.6283923,N,11406.0790340,E,021.658,258.1,040719,0.0,W,D*2A
$GPGGA,085006.00,2232.6261930,N,11406.0727597,E,5,08,9.1,11.0086,M,-2.866,M,02,3572*78
$GPRMC,085006.00,A,2232.6261930,N,11406.0727597,E,020.759,260.0,040719,0.0,W,D*2C
$GPGGA,085007.00,2232.6252166,N,11406.0667843,E,5,08,3.5,10.7068,M,-2.866,M,02,3572*7B
$GPRMC,085007.00,A,2232.6252166,N,11406.0667843,E,020.047,260.8,040719,0.0,W,D*27
$GPGGA,085008.00,2232.6242320,N,11406.0610501,E,5,09,3.3,10.0299,M,-2.867,M,02,3572*73
$GPRMC,085008.00,A,2232.6242320,N,11406.0610501,E,019.382,261.1,040719,0.0,W,D*2A
$GPGGA,085009.00,2232.6233891,N,11406.0554859,E,5,10,3.3,9.5047,M,-2.867,M,02,3572*42
$GPRMC,085009.00,A,2232.6233891,N,11406.0554859,E,018.746,260.5,040719,0.0,W,D*27
$GPGGA,085010.00,2232.6225370,N,11406.0500920,E,5,10,3.0,9.2397,M,-2.867,M,02,3572*4D
$GPRMC,085010.00,A,2232.6225370,N,11406.0500920,E,018.003,259.7,040719,0.0,W,D*2C
$GPGGA,085011.00,2232.6216491,N,11406.0449663,E,5,10,3.0,9.0196,M,-2.867,M,02,3572*41
$GPRMC,085011.00,A,2232.6216491,N,11406.0449663,E,017.001,258.9,040719,0.0,W,D*23
$GPGGA,085012.00,2232.6208168,N,11406.0402443,E,5,10,3.0,8.9490,M,-2.868,M,02,3572*45
$GPRMC,085012.00,A,2232.6208168,N,11406.0402443,E,015.527,258.9,040719,0.0,W,D*20
$GPGGA,085013.00,2232.6204385,N,11406.0359123,E,5,10,3.0,7.0924,M,-2.868,M,02,3572*47
$GPRMC,085013.00,A,2232.6204385,N,11406.0359123,E,014.299,260.8,040719,0.0,W,D*2F
$GPGGA,085014.00,2232.6198713,N,11406.0318971,E,5,10,3.0,7.0571,M,-2.868,M,02,3572*4B
$GPRMC,085014.00,A,2232.6198713,N,11406.0318971,E,013.045,261.5,040719,0.0,W,D*27
$GPGGA,085015.00,2232.6193954,N,11406.0282492,E,5,10,3.6,7.0579,M,-2.868,M,02,3572*40
$GPRMC,085015.00,A,2232.6193954,N,11406.0282492,E,011.822,262.0,040719,0.0,W,D*2F
$GPGGA,085016.00,2232.6189965,N,11406.0249567,E,5,11,3.0,7.0800,M,-2.869,M,02,3572*43
$GPRMC,085016.00,A,2232.6189965,N,11406.0249567,E,010.492,262.5,040719,0.0,W,D*2A
$GPGGA,085017.00,2232.6185593,N,11406.0221015,E,1,11,1.0,8.3615,M,-2.869,M,,3572*47
$GPRMC,085017.00,A,2232.6185593,N,11406.0221015,E,007.631,263.8,040719,0.0,W,A*28
$GPGGA,085018.00,2232.6182321,N,11406.0206141,E,5,11,3.0,8.0301,M,-2.869,M,02,3572*42
$GPRMC,085018.00,A,2232.6182321,N,11406.0206141,E,006.037,263.3,040719,0.0,W,D*25
$GPGGA,085019.00,2232.6180607,N,11406.0191778,E,5,11,3.6,7.8085,M,-2.869,M,02,3572*4F
$GPRMC,085019.00,A,2232.6180607,N,11406.0191778,E,003.113,266.3,040719,0.0,W,D*21
$GPGGA,085020.00,2232.6181719,N,11406.0183992,E,0,01,0.0,11.6352,M,-2.869,M,,*73
$GPRMC,085020.00,V,2232.6181719,N,11406.0183992,E,001.350,253.7,040719,0.0,W,A*3A
$GPGGA,085021.00,2232.6181719,N,11406.0183992,E,0,02,0.0,11.6352,M,-2.869,M,,*71
$GPRMC,085021.00,V,2232.6181719,N,11406.0183992,E,001.350,253.7,040719,0.0,W,A*3B
$GPGGA,085022.00,2232.6181719,N,11406.0183992,E,0,03,0.0,11.6352,M,-2.869,M,,*73
$GPRMC,085022.00,V,2232.6181719,N,11406.0183992,E,001.350,253.7,040719,0.0,W,A*38
$GPGGA,085023.00,2232.6181766,N,11406.0189077,E,0,04,0.0,13.1012,M,-2.869,M,,*77
$GPRMC,085023.00,V,2232.6181766,N,11406.0189077,E,000.134,253.9,040719,0.0,W,A*36
$GPGGA,085024.00,2232.6178111,N,11406.0185002,E,1,07,1.4,3.7624,M,-2.869,M,,3572*4E
$GPRMC,085024.00,A,2232.6178111,N,11406.0185002,E,000.067,086.8,040719,0.0,W,A*24
$GPGGA,085025.00,2232.6204679,N,11406.0186844,E,1,07,1.5,4.3173,M,-2.869,M,,3572*40
$GPRMC,085025.00,A,2232.6204679,N,11406.0186844,E,000.089,285.9,040719,0.0,W,A*2D
$GPGGA,085026.00,2232.6192574,N,11406.0180511,E,1,09,1.1,0.6598,M,-2.869,M,,3572*40
$GPRMC,085026.00,A,2232.6192574,N,11406.0180511,E,000.331,199.9,040719,0.0,W,A*29
$GPGGA,085027.00,2232.6176310,N,11406.0169516,E,1,08,1.2,2.4075,M,-2.869,M,,3572*4B
$GPRMC,085027.00,A,2232.6176310,N,11406.0169516,E,000.270,024.1,040719,0.0,W,A*2D
$GPGGA,085028.00,2232.6170724,N,11406.0181917,E,5,13,3.5,6.4795,M,-2.869,M,02,3572*4E
$GPRMC,085028.00,A,2232.6170724,N,11406.0181917,E,000.034,025.7,040719,0.0,W,D*2C
$GPGGA,085029.00,2232.6177856,N,11406.0184025,E,5,13,3.5,5.2548,M,-2.869,M,02,3572*48
$GPRMC,085029.00,A,2232.6177856,N,11406.0184025,E,000.030,179.5,040719,0.0,W,D*23
$GPGGA,085030.00,2232.6178943,N,11406.0184903,E,5,13,4.5,4.3612,M,-2.869,M,02,3572*4C
$GPRMC,085030.00,A,2232.6178943,N,11406.0184903,E,000.014,245.6,040719,0.0,W,D*25
$GPGGA,085031.00,2232.6180376,N,11406.0186888,E,5,13,3.5,5.2600,M,-2.869,M,02,3572*42
$GPRMC,085031.00,A,2232.6180376,N,11406.0186888,E,000.012,302.4,040719,0.0,W,D*29
$GPGGA,085032.00,2232.6181328,N,11406.0188376,E,5,13,3.0,5.2889,M,-2.869,M,02,3572*45
$GPRMC,085032.00,A,2232.6181328,N,11406.0188376,E,000.017,155.5,040719,0.0,W,D*20
$GPGGA,085033.00,2232.6182436,N,11406.0189091,E,5,13,3.0,5.6209,M,-2.869,M,02,3572*42
$GPRMC,085033.00,A,2232.6182436,N,11406.0189091,E,000.007,063.1,040719,0.0,W,D*20
$GPGGA,085034.00,2232.6182905,N,11406.0188596,E,5,13,2.9,4.9104,M,-2.869,M,02,3572*43
$GPRMC,085034.00,A,2232.6182905,N,11406.0188596,E,000.010,027.3,040719,0.0,W,D*2D
$GPGGA,085035.00,2232.6183484,N,11406.0188345,E,5,13,3.4,4.0908,M,-2.869,M,02,3572*4E
$GPRMC,085035.00,A,2232.6183484,N,11406.0188345,E,000.025,335.5,040719,0.0,W,D*21
$GPGGA,085036.00,2232.6183278,N,11406.0188676,E,5,13,3.0,4.7404,M,-2.869,M,02,3572*4F
$GPRMC,085036.00,A,2232.6183278,N,11406.0188676,E,000.004,015.4,040719,0.0,W,D*21
$GPGGA,085037.00,2232.6181951,N,11406.0188282,E,5,13,3.4,5.4864,M,-2.869,M,02,3572*4F
$GPRMC,085037.00,A,2232.6181951,N,11406.0188282,E,000.020,085.4,040719,0.0,W,D*22
$GPGGA,085038.00,2232.6183371,N,11406.0185399,E,5,13,2.6,7.0440,M,-2.869,M,02,3572*43
$GPRMC,085038.00,A,2232.6183371,N,11406.0185399,E,000.001,307.9,040719,0.0,W,D*26
$GPGGA,085039.00,2232.6183426,N,11406.0185394,E,5,13,2.6,7.0835,M,-2.869,M,02,3572*44
$GPRMC,085039.00,A,2232.6183426,N,11406.0185394,E,000.011,130.4,040719,0.0,W,D*25
$GPGGA,085040.00,2232.6183416,N,11406.0185392,E,5,13,2.6,7.1016,M,-2.869,M,02,3572*47
$GPRMC,085040.00,A,2232.6183416,N,11406.0185392,E,000.019,194.2,040719,0.0,W,D*2E
$GPGGA,085041.00,2232.6183413,N,11406.0185387,E,5,13,2.9,7.0964,M,-2.869,M,02,3572*45
$GPRMC,085041.00,A,2232.6183413,N,11406.0185387,E,000.013,031.9,040719,0.0,W,D*21
$GPGGA,085042.00,2232.6183419,N,11406.0185372,E,5,13,2.6,7.0710,M,-2.869,M,02,3572*44
$GPRMC,085042.00,A,2232.6183419,N,11406.0185372,E,000.014,158.8,040719,0.0,W,D*2A
$GPGGA,085043.00,2232.6183397,N,11406.0185394,E,5,13,2.9,7.0765,M,-2.869,M,02,3572*41
$GPRMC,085043.00,A,2232.6183397,N,11406.0185394,E,000.021,162.7,040719,0.0,W,D*22
$GPGGA,085044.00,2232.6183375,N,11406.0185375,E,5,13,3.6,7.0742,M,-2.869,M,02,3572*4E
$GPRMC,085044.00,A,2232.6183375,N,11406.0185375,E,000.034,024.0,040719,0.0,W,D*26
$GPGGA,085045.00,2232.6192141,N,11406.0190380,E,1,12,0.9,10.1883,M,-2.869,M,,3572*7A
$GPRMC,085045.00,A,2232.6192141,N,11406.0190380,E,000.149,134.9,040719,0.0,W,A*2B
$GPGGA,085046.00,2232.6184119,N,11406.0189927,E,5,13,2.6,7.3403,M,-2.869,M,02,3572*46
$GPRMC,085046.00,A,2232.6184119,N,11406.0189927,E,000.026,282.1,040719,0.0,W,D*26
$GPGGA,085047.00,2232.6184528,N,11406.0189862,E,5,13,2.6,7.0921,M,-2.869,M,02,3572*4F
$GPRMC,085047.00,A,2232.6184528,N,11406.0189862,E,000.053,016.4,040719,0.0,W,D*29
$GPGGA,085048.00,2232.6176918,N,11406.0185449,E,0,03,0.0,11.9336,M,-2.869,M,,*78
$GPRMC,085048.00,V,2232.6176918,N,11406.0185449,E,000.029,221.8,040719,0.0,W,A*38
$GPGGA,085049.00,2232.6184144,N,11406.0173136,E,0,04,0.0,1.1540,M,-2.869,M,,*48
$GPRMC,085049.00,V,2232.6184144,N,11406.0173136,E,000.157,089.4,040719,0.0,W,A*35
$GPGGA,085050.00,2232.6208180,N,11406.0206095,E,0,04,0.0,20.6206,M,-2.869,M,,*77
$GPRMC,085050.00,V,2232.6208180,N,11406.0206095,E,000.169,065.1,040719,0.0,W,A*31
$GPGGA,085051.00,2232.6211344,N,11406.0198177,E,0,04,0.0,8.2832,M,-2.869,M,,*4E
$GPRMC,085051.00,V,2232.6211344,N,11406.0198177,E,000.106,349.3,040719,0.0,W,A*3D
$GPGGA,085052.00,2232.6185025,N,11406.0187047,E,5,13,5.4,6.2804,M,-2.869,M,02,3572*43
$GPRMC,085052.00,A,2232.6185025,N,11406.0187047,E,000.159,276.7,040719,0.0,W,D*29
$GPGGA,085053.00,2232.6186789,N,11406.0190760,E,5,13,2.9,6.2613,M,-2.869,M,02,3572*46
$GPRMC,085053.00,A,2232.6186789,N,11406.0190760,E,000.011,269.6,040719,0.0,W,D*2C
$GPGGA,085054.00,2232.6186183,N,11406.0189770,E,5,13,2.6,7.1446,M,-2.869,M,02,3572*4B
$GPRMC,085054.00,A,2232.6186183,N,11406.0189770,E,000.030,185.1,040719,0.0,W,D*2B
$GPGGA,085055.00,2232.6185951,N,11406.0187002,E,5,13,4.7,8.1255,M,-2.869,M,02,3572*4E
$GPRMC,085055.00,A,2232.6185951,N,11406.0187002,E,000.017,132.7,040719,0.0,W,D*2D
$GPGGA,085056.00,2232.6183383,N,11406.0184100,E,5,13,3.0,7.1815,M,-2.869,M,02,3572*4F
$GPRMC,085056.00,A,2232.6183383,N,11406.0184100,E,000.047,124.2,040719,0.0,W,D*2A
$GPGGA,085057.00,2232.6183457,N,11406.0184056,E,5,13,3.0,7.1867,M,-2.869,M,02,3572*47
$GPRMC,085057.00,A,2232.6183457,N,11406.0184056,E,000.061,355.8,040719,0.0,W,D*2D
$GPGGA,085058.00,2232.6183364,N,11406.0184031,E,5,13,3.0,7.1722,M,-2.869,M,02,3572*40
$GPRMC,085058.00,A,2232.6183364,N,11406.0184031,E,000.029,205.3,040719,0.0,W,D*27
$GPGGA,085059.00,2232.6183289,N,11406.0184034,E,5,13,2.6,7.1612,M,-2.869,M,02,3572*43
$GPRMC,085059.00,A,2232.6183289,N,11406.0184034,E,000.045,165.0,040719,0.0,W,D*2D
$GPGGA,085100.00,2232.6183249,N,11406.0184069,E,5,13,3.0,7.1778,M,-2.869,M,02,3572*40
$GPRMC,085100.00,A,2232.6183249,N,11406.0184069,E,000.011,324.2,040719,0.0,W,D*20
$GPGGA,085101.00,2232.6183246,N,11406.0184098,E,5,13,2.6,7.1723,M,-2.869,M,02,3572*49
$GPRMC,085101.00,A,2232.6183246,N,11406.0184098,E,000.010,203.4,040719,0.0,W,D*23
$GPGGA,085102.00,2232.6183245,N,11406.0184138,E,5,15,3.0,7.2163,M,-2.869,M,02,3572*42
$GPRMC,085102.00,A,2232.6183245,N,11406.0184138,E,000.030,081.9,040719,0.0,W,D*2F
$GPGGA,085103.00,2232.6189413,N,11406.0185269,E,1,15,0.7,10.9684,M,-2.869,M,,3572*7B
$GPRMC,085103.00,A,2232.6189413,N,11406.0185269,E,000.077,120.3,040719,0.0,W,A*21
$GPGGA,085104.00,2232.6183496,N,11406.0184645,E,5,15,2.5,10.4998,M,-2.869,M,02,3572*79
$GPRMC,085104.00,A,2232.6183496,N,11406.0184645,E,000.004,078.0,040719,0.0,W,D*24
$GPGGA,085105.00,2232.6185837,N,11406.0184405,E,5,14,2.5,9.8791,M,-2.869,M,02,3572*4D
$GPRMC,085105.00,A,2232.6185837,N,11406.0184405,E,000.021,352.8,040719,0.0,W,D*26
$GPGGA,085106.00,2232.6185662,N,11406.0184325,E,5,14,3.0,9.2648,M,-2.869,M,02,3572*4E
$GPRMC,085106.00,A,2232.6185662,N,11406.0184325,E,000.008,151.6,040719,0.0,W,D*2A
$GPGGA,085107.00,2232.6184876,N,11406.0184531,E,5,14,2.5,9.1697,M,-2.869,M,02,3572*43
$GPRMC,085107.00,A,2232.6184876,N,11406.0184531,E,000.014,262.7,040719,0.0,W,D*2D
$GPGGA,085108.00,2232.6184388,N,11406.0183075,E,5,15,3.3,9.2355,M,-2.869,M,02,3572*4A
$GPRMC,085108.00,A,2232.6184388,N,11406.0183075,E,000.948,266.8,040719,0.0,W,D*21
$GPGGA,085109.00,2232.6184372,N,11406.0182747,E,2,12,2.5,21.5763,M,-2.869,M,02,3572*72
$GPRMC,085109.00,A,2232.6184372,N,11406.0182747,E,000.545,283.5,040719,0.0,W,D*25
$GPGGA,085110.00,2232.6183167,N,11406.0178823,E,5,13,7.2,17.3821,M,-2.869,M,02,3572*7D
$GPRMC,085110.00,A,2232.6183167,N,11406.0178823,E,001.576,266.5,040719,0.0,W,D*2E
$GPGGA,085111.00,2232.6180271,N,11406.0172089,E,5,14,3.5,15.2647,M,-2.869,M,02,3572*70
$GPRMC,085111.00,A,2232.6180271,N,11406.0172089,E,002.706,265.6,040719,0.0,W,D*2C
$GPGGA,085112.00,2232.6178860,N,11406.0160928,E,5,15,2.5,14.2342,M,-2.869,M,02,3572*7E
$GPRMC,085112.00,A,2232.6178860,N,11406.0160928,E,004.563,266.1,040719,0.0,W,D*20
$GPGGA,085113.00,2232.6178327,N,11406.0143632,E,5,15,2.2,12.7591,M,-2.869,M,02,3572*7E
$GPRMC,085113.00,A,2232.6178327,N,11406.0143632,E,006.721,266.7,040719,0.0,W,D*2C
$GPGGA,085114.00,2232.6177103,N,11406.0120247,E,5,15,2.5,11.6416,M,-2.869,M,02,3572*7A
$GPRMC,085114.00,A,2232.6177103,N,11406.0120247,E,008.251,267.4,040719,0.0,W,D*2D
$GPGGA,085115.00,2232.6176566,N,11406.0093051,E,5,15,2.5,10.7539,M,-2.870,M,02,3572*75
$GPRMC,085115.00,A,2232.6176566,N,11406.0093051,E,009.482,268.1,040719,0.0,W,D*25
$GPGGA,085116.00,2232.6176199,N,11406.0061791,E,5,14,2.9,10.2156,M,-2.870,M,02,3572*71
$GPRMC,085116.00,A,2232.6176199,N,11406.0061791,E,010.979,268.2,040719,0.0,W,D*26
$GPGGA,085117.00,2232.6176565,N,11406.0024908,E,5,13,2.9,7.2989,M,-2.870,M,02,3572*43
$GPRMC,085117.00,A,2232.6176565,N,11406.0024908,E,011.580,268.0,040719,0.0,W,D*26
$GPGGA,085118.00,2232.6175291,N,11405.9987973,E,5,13,2.9,7.3230,M,-2.870,M,02,3572*4D
$GPRMC,085118.00,A,2232.6175291,N,11405.9987973,E,012.695,267.8,040719,0.0,W,D*23
$GPGGA,085119.00,2232.6173831,N,11405.9948173,E,5,13,2.9,7.3688,M,-2.870,M,02,3572*46
$GPRMC,085119.00,A,2232.6173831,N,11405.9948173,E,013.652,267.8,040719,0.0,W,D*25
$GPGGA,085120.00,2232.6172321,N,11405.9905468,E,5,13,2.9,7.4203,M,-2.871,M,02,3572*40
$GPRMC,085120.00,A,2232.6172321,N,11405.9905468,E,014.677,267.7,040719,0.0,W,D*2D
$GPGGA,085121.00,2232.6170983,N,11405.9860915,E,5,13,3.3,7.5137,M,-2.871,M,02,3572*4A
$GPRMC,085121.00,A,2232.6170983,N,11405.9860915,E,014.848,268.7,040719,0.0,W,D*24
$GPGGA,085122.00,2232.6169381,N,11405.9813286,E,4,12,2.9,7.2962,M,-2.871,M,02,3572*48
$GPRMC,085122.00,A,2232.6169381,N,11405.9813286,E,016.525,267.8,040719,0.0,W,D*26
$GPGGA,085123.00,2232.6167665,N,11405.9761665,E,4,12,2.9,7.3879,M,-2.872,M,02,3572*42
$GPRMC,085123.00,A,2232.6167665,N,11405.9761665,E,017.683,268.0,040719,0.0,W,D*2C
$GPGGA,085124.00,2232.6166412,N,11405.9707115,E,4,12,2.9,7.4721,M,-2.872,M,02,3572*43
$GPRMC,085124.00,A,2232.6166412,N,11405.9707115,E,018.378,268.8,040719,0.0,W,D*2E
$GPGGA,085125.00,2232.6165378,N,11405.9651281,E,4,11,2.9,7.5269,M,-2.872,M,02,3572*4D
$GPRMC,085125.00,A,2232.6165378,N,11405.9651281,E,018.739,268.8,040719,0.0,W,D*2A
$GPGGA,085126.00,2232.6164398,N,11405.9593077,E,4,12,3.0,7.6009,M,-2.873,M,02,3572*4A
$GPRMC,085126.00,A,2232.6164398,N,11405.9593077,E,019.637,268.8,040719,0.0,W,D*2E
$GPGGA,085127.00,2232.6163468,N,11405.9532589,E,4,12,2.9,7.6522,M,-2.873,M,02,3572*4F
$GPRMC,085127.00,A,2232.6163468,N,11405.9532589,E,020.594,269.1,040719,0.0,W,D*27
$GPGGA,085128.00,2232.6162481,N,11405.9468961,E,4,12,2.9,7.7598,M,-2.873,M,02,3572*42
$GPRMC,085128.00,A,2232.6162481,N,11405.9468961,E,021.422,269.1,040719,0.0,W,D*27
$GPGGA,085129.00,2232.6161480,N,11405.9403751,E,4,12,2.6,7.8480,M,-2.874,M,02,3572*4E
$GPRMC,085129.00,A,2232.6161480,N,11405.9403751,E,021.866,269.0,040719,0.0,W,D*29
$GPGGA,085130.00,2232.6160324,N,11405.9337276,E,4,12,2.9,7.9975,M,-2.874,M,02,3572*47
$GPRMC,085130.00,A,2232.6160324,N,11405.9337276,E,022.226,268.8,040719,0.0,W,D*2D
$GPGGA,085131.00,2232.6158900,N,11405.9269720,E,4,11,2.9,8.1090,M,-2.875,M,02,3572*4A
$GPRMC,085131.00,A,2232.6158900,N,11405.9269720,E,022.522,268.7,040719,0.0,W,D*2B
$GPGGA,085132.00,2232.6157356,N,11405.9201186,E,4,11,3.0,8.2632,M,-2.875,M,02,3572*4E
$GPRMC,085132.00,A,2232.6157356,N,11405.9201186,E,023.061,268.7,040719,0.0,W,D*29
$GPGGA,085133.00,2232.6155462,N,11405.9131414,E,4,09,4.3,8.4326,M,-2.875,M,02,3572*48
$GPRMC,085133.00,A,2232.6155462,N,11405.9131414,E,023.316,268.5,040719,0.0,W,D*25
$GPGGA,085134.00,2232.6152404,N,11405.9062072,E,4,08,4.3,8.6032,M,-2.876,M,02,3572*4D
$GPRMC,085134.00,A,2232.6152404,N,11405.9062072,E,022.928,267.1,040719,0.0,W,D*2B
$GPGGA,085135.00,2232.6148489,N,11405.8995016,E,4,08,5.6,8.7945,M,-2.876,M,02,3572*4C
$GPRMC,085135.00,A,2232.6148489,N,11405.8995016,E,021.969,266.0,040719,0.0,W,D*20
$GPGGA,085136.00,2232.6151531,N,11405.8931213,E,5,07,5.6,10.7059,M,-2.877,M,02,3572*7E
$GPRMC,085136.00,A,2232.6151531,N,11405.8931213,E,022.407,265.5,040719,0.0,W,D*20
$GPGGA,085137.00,2232.6145770,N,11405.8862668,E,5,09,3.3,10.7566,M,-2.877,M,02,3572*76
$GPRMC,085137.00,A,2232.6145770,N,11405.8862668,E,023.029,267.5,040719,0.0,W,D*27
$GPGGA,085138.00,2232.6173403,N,11405.8797687,E,0,05,0.0,13.6004,M,-2.877,M,,*74
$GPRMC,085138.00,V,2232.6173403,N,11405.8797687,E,023.179,265.4,040719,0.0,W,A*3B
$GPGGA,085139.00,2232.6138876,N,11405.8727236,E,5,09,5.6,10.8961,M,-2.878,M,02,3572*72
$GPRMC,085139.00,A,2232.6138876,N,11405.8727236,E,021.734,268.4,040719,0.0,W,D*2C
$GPGGA,085140.00,2232.6136962,N,11405.8663297,E,5,08,6.5,10.5592,M,-2.878,M,02,3572*70
$GPRMC,085140.00,A,2232.6136962,N,11405.8663297,E,020.650,268.6,040719,0.0,W,D*22
$GPGGA,085141.00,2232.6135269,N,11405.8601609,E,5,08,6.5,10.5908,M,-2.879,M,02,3572*7B
$GPRMC,085141.00,A,2232.6135269,N,11405.8601609,E,020.685,268.9,040719,0.0,W,D*20
$GPGGA,085142.00,2232.6134598,N,11405.8538169,E,5,08,6.5,10.7794,M,-2.879,M,02,3572*71
$GPRMC,085142.00,A,2232.6134598,N,11405.8538169,E,021.461,270.0,040719,0.0,W,D*2A
$GPGGA,085143.00,2232.6133749,N,11405.8471530,E,5,07,4.7,10.7058,M,-2.879,M,02,3572*75
$GPRMC,085143.00,A,2232.6133749,N,11405.8471530,E,022.642,268.8,040719,0.0,W,D*27
$GPGGA,085144.00,2232.6130713,N,11405.8402072,E,5,07,6.5,10.3287,M,-2.880,M,02,3572*7B
$GPRMC,085144.00,A,2232.6130713,N,11405.8402072,E,023.424,268.2,040719,0.0,W,D*22
$GPGGA,085145.00,2232.6125265,N,11405.8330236,E,5,07,4.7,10.4147,M,-2.880,M,02,3572*76
$GPRMC,085145.00,A,2232.6125265,N,11405.8330236,E,023.400,268.4,040719,0.0,W,D*27
$GPGGA,085146.00,2232.6123893,N,11405.8260884,E,5,08,4.3,10.5118,M,-2.881,M,02,3572*76
$GPRMC,085146.00,A,2232.6123893,N,11405.8260884,E,022.802,268.7,040719,0.0,W,D*2A
$GPGGA,085147.00,2232.6123243,N,11405.8193818,E,4,07,5.6,10.5593,M,-2.881,M,02,3572*77
$GPRMC,085147.00,A,2232.6123243,N,11405.8193818,E,022.258,268.5,040719,0.0,W,D*21
$GPGGA,085148.00,2232.6122130,N,11405.8126077,E,4,07,5.6,10.6587,M,-2.881,M,02,3572*77
$GPRMC,085148.00,A,2232.6122130,N,11405.8126077,E,022.838,269.1,040719,0.0,W,D*2E
$GPGGA,085149.00,2232.6120830,N,11405.8056205,E,4,07,5.6,10.8364,M,-2.882,M,02,3572*7A
$GPRMC,085149.00,A,2232.6120830,N,11405.8056205,E,023.514,268.6,040719,0.0,W,D*21
$GPGGA,085150.00,2232.6119161,N,11405.7985754,E,4,07,5.6,10.9772,M,-2.882,M,02,3572*7E
$GPRMC,085150.00,A,2232.6119161,N,11405.7985754,E,023.335,268.8,040719,0.0,W,D*2C
$GPGGA,085151.00,2232.6117130,N,11405.7915819,E,4,07,5.6,11.1169,M,-2.883,M,02,3572*7E
$GPRMC,085151.00,A,2232.6117130,N,11405.7915819,E,023.379,268.4,040719,0.0,W,D*2C
$GPGGA,085152.00,2232.6115398,N,11405.7845353,E,4,09,3.1,11.2506,M,-2.883,M,02,3572*7F
$GPRMC,085152.00,A,2232.6115398,N,11405.7845353,E,023.568,268.8,040719,0.0,W,D*26
$GPGGA,085153.00,2232.6113950,N,11405.7774437,E,4,09,3.0,11.4174,M,-2.884,M,02,3572*7F
$GPRMC,085153.00,A,2232.6113950,N,11405.7774437,E,023.502,269.2,040719,0.0,W,D*20
$GPGGA,085154.00,2232.6112542,N,11405.7705337,E,4,10,3.0,11.5214,M,-2.884,M,02,3572*7B
$GPRMC,085154.00,A,2232.6112542,N,11405.7705337,E,022.659,268.7,040719,0.0,W,D*20
$GPGGA,085155.00,2232.6111047,N,11405.7639378,E,4,10,3.0,11.6448,M,-2.884,M,02,3572*70
$GPRMC,085155.00,A,2232.6111047,N,11405.7639378,E,021.713,268.2,040719,0.0,W,D*2E
$GPGGA,085156.00,2232.6109494,N,11405.7574858,E,4,12,2.6,11.7303,M,-2.885,M,02,3572*7E
$GPRMC,085156.00,A,2232.6109494,N,11405.7574858,E,021.389,268.5,040719,0.0,W,D*2D
$GPGGA,085157.00,2232.6107801,N,11405.7510814,E,4,11,2.6,11.7998,M,-2.885,M,02,3572*70
$GPRMC,085157.00,A,2232.6107801,N,11405.7510814,E,021.236,267.9,040719,0.0,W,D*2E
$GPGGA,085158.00,2232.6106245,N,11405.7447330,E,4,11,2.6,11.8691,M,-2.886,M,02,3572*70
$GPRMC,085158.00,A,2232.6106245,N,11405.7447330,E,021.244,268.8,040719,0.0,W,D*2F
$GPGGA,085159.00,2232.6104759,N,11405.7382785,E,4,12,2.9,11.8740,M,-2.886,M,02,3572*7E
$GPRMC,085159.00,A,2232.6104759,N,11405.7382785,E,021.638,268.9,040719,0.0,W,D*2E
$GPGGA,085200.00,2232.6103814,N,11405.7316992,E,4,11,2.9,11.8950,M,-2.886,M,02,3572*79
$GPRMC,085200.00,A,2232.6103814,N,11405.7316992,E,022.079,269.3,040719,0.0,W,D*2E
$GPGGA,085201.00,2232.6102984,N,11405.7250068,E,4,12,3.1,11.8966,M,-2.887,M,02,3572*70
$GPRMC,085201.00,A,2232.6102984,N,11405.7250068,E,022.401,269.1,040719,0.0,W,D*20
$GPGGA,085202.00,2232.6102124,N,11405.7182554,E,4,12,3.1,11.8802,M,-2.887,M,02,3572*74
$GPRMC,085202.00,A,2232.6102124,N,11405.7182554,E,022.548,269.4,040719,0.0,W,D*2E
$GPGGA,085203.00,2232.6100897,N,11405.7114573,E,4,12,2.9,11.9341,M,-2.888,M,02,3572*77
$GPRMC,085203.00,A,2232.6100897,N,11405.7114573,E,022.722,268.7,040719,0.0,W,D*2A
$GPGGA,085204.00,2232.6099825,N,11405.7046282,E,4,13,2.9,11.9311,M,-2.888,M,02,3572*73
$GPRMC,085204.00,A,2232.6099825,N,11405.7046282,E,022.842,269.0,040719,0.0,W,D*25
$GPGGA,085205.00,2232.6098561,N,11405.6977624,E,4,14,2.9,11.9573,M,-2.888,M,02,3572*79
$GPRMC,085205.00,A,2232.6098561,N,11405.6977624,E,022.904,268.8,040719,0.0,W,D*20
$GPGGA,085206.00,2232.6097130,N,11405.6908063,E,4,13,2.9,11.9572,M,-2.889,M,02,3572*7F
$GPRMC,085206.00,A,2232.6097130,N,11405.6908063,E,023.605,268.8,040719,0.0,W,D*2E
$GPGGA,085207.00,2232.6095545,N,11405.6834933,E,4,12,2.9,11.9668,M,-2.889,M,02,3572*71
$GPRMC,085207.00,A,2232.6095545,N,11405.6834933,E,024.786,268.6,040719,0.0,W,D*2A
$GPGGA,085208.00,2232.6093734,N,11405.6759208,E,4,12,2.9,12.0020,M,-2.890,M,02,3572*73
$GPRMC,085208.00,A,2232.6093734,N,11405.6759208,E,025.462,268.3,040719,0.0,W,D*2D
$GPGGA,085209.00,2232.6091861,N,11405.6682328,E,4,12,3.1,12.0387,M,-2.890,M,02,3572*7C
$GPRMC,085209.00,A,2232.6091861,N,11405.6682328,E,025.779,268.3,040719,0.0,W,D*2C
$GPGGA,085210.00,2232.6090183,N,11405.6604611,E,4,11,2.9,12.0941,M,-2.891,M,02,3572*7A
$GPRMC,085210.00,A,2232.6090183,N,11405.6604611,E,025.928,268.7,040719,0.0,W,D*2F
$GPGGA,085211.00,2232.6088680,N,11405.6527311,E,4,11,2.9,12.1206,M,-2.891,M,02,3572*78
$GPRMC,085211.00,A,2232.6088680,N,11405.6527311,E,025.622,268.7,040719,0.0,W,D*21
$GPGGA,085212.00,2232.6087405,N,11405.6452484,E,4,11,2.9,12.1652,M,-2.892,M,02,3572*75
$GPRMC,085212.00,A,2232.6087405,N,11405.6452484,E,024.541,269.0,040719,0.0,W,D*2B
$GPGGA,085213.00,2232.6087465,N,11405.6381744,E,4,09,5.9,12.2280,M,-2.892,M,02,3572*72
$GPRMC,085213.00,A,2232.6087465,N,11405.6381744,E,022.767,272.7,040719,0.0,W,D*27
$GPGGA,085214.00,2232.6087916,N,11405.6313171,E,5,12,3.0,12.2411,M,-2.892,M,02,3572*7D
$GPRMC,085214.00,A,2232.6087916,N,11405.6313171,E,023.000,270.8,040719,0.0,W,D*28
$GPGGA,085215.00,2232.6083012,N,11405.6242150,E,5,12,2.6,13.4879,M,-2.893,M,02,3572*70
$GPRMC,085215.00,A,2232.6083012,N,11405.6242150,E,024.806,270.8,040719,0.0,W,D*2F
$GPGGA,085216.00,2232.6084116,N,11405.6164741,E,5,12,2.6,13.5434,M,-2.893,M,02,3572*74
$GPRMC,085216.00,A,2232.6084116,N,11405.6164741,E,026.490,269.7,040719,0.0,W,D*29
$GPGGA,085217.00,2232.6083900,N,11405.6083896,E,5,13,2.6,13.6076,M,-2.894,M,02,3572*77
$GPRMC,085217.00,A,2232.6083900,N,11405.6083896,E,027.176,269.0,040719,0.0,W,D*26
$GPGGA,085218.00,2232.6085684,N,11405.6000070,E,5,14,2.6,12.4093,M,-2.894,M,02,3572*79
$GPRMC,085218.00,A,2232.6085684,N,11405.6000070,E,027.460,268.3,040719,0.0,W,D*27
$GPGGA,085219.00,2232.6082217,N,11405.5916551,E,5,14,2.6,12.4561,M,-2.895,M,02,3572*73
$GPRMC,085219.00,A,2232.6082217,N,11405.5916551,E,028.289,267.4,040719,0.0,W,D*22
$GPGGA,085220.00,2232.6078892,N,11405.5830236,E,5,13,2.5,12.4073,M,-2.895,M,02,3572*7A
$GPRMC,085220.00,A,2232.6078892,N,11405.5830236,E,029.030,267.9,040719,0.0,W,D*25
$GPGGA,085221.00,2232.6076720,N,11405.5742820,E,4,11,2.9,12.2624,M,-2.896,M,02,3572*7A
$GPRMC,085221.00,A,2232.6076720,N,11405.5742820,E,029.219,268.2,040719,0.0,W,D*26
$GPGGA,085222.00,2232.6074821,N,11405.5655042,E,5,09,7.9,12.3310,M,-2.896,M,02,3572*70
$GPRMC,085222.00,A,2232.6074821,N,11405.5655042,E,029.314,268.9,040719,0.0,W,D*25
$GPGGA,085223.00,2232.6076711,N,11405.5569644,E,2,08,4.6,13.3438,M,-2.897,M,02,3572*74
$GPRMC,085223.00,A,2232.6076711,N,11405.5569644,E,029.089,269.6,040719,0.0,W,D*2F
$GPGGA,085224.00,2232.6060706,N,11405.5475161,E,2,06,5.6,13.6034,M,-2.898,M,02,3572*73
$GPRMC,085224.00,A,2232.6060706,N,11405.5475161,E,029.266,268.3,040719,0.0,W,D*22
$GPGGA,085225.00,2232.6060511,N,11405.5389990,E,5,04,10.9,13.5042,M,-2.898,M,02,3572*48
$GPRMC,085225.00,A,2232.6060511,N,11405.5389990,E,028.982,266.9,040719,0.0,W,D*21
$GPGGA,085226.00,2232.6076015,N,11405.5313087,E,5,09,4.0,12.7577,M,-2.899,M,02,3572*71
$GPRMC,085226.00,A,2232.6076015,N,11405.5313087,E,026.789,269.4,040719,0.0,W,D*21
$GPGGA,085227.00,2232.6075240,N,11405.5234660,E,5,09,4.0,12.6604,M,-2.899,M,02,3572*7C
$GPRMC,085227.00,A,2232.6075240,N,11405.5234660,E,025.499,269.8,040719,0.0,W,D*27
$GPGGA,085228.00,2232.6073725,N,11405.5160032,E,5,09,4.0,12.6134,M,-2.900,M,02,3572*75
$GPRMC,085228.00,A,2232.6073725,N,11405.5160032,E,024.507,268.9,040719,0.0,W,D*2C
$GPGGA,085229.00,2232.6067428,N,11405.5086664,E,5,10,4.0,12.8337,M,-2.900,M,02,3572*74
$GPRMC,085229.00,A,2232.6067428,N,11405.5086664,E,023.400,268.6,040719,0.0,W,D*24
$GPGGA,085230.00,2232.6065406,N,11405.5017862,E,5,12,3.0,12.9117,M,-2.900,M,02,3572*76
$GPRMC,085230.00,A,2232.6065406,N,11405.5017862,E,022.638,268.6,040719,0.0,W,D*2A
$GPGGA,085231.00,2232.6064012,N,11405.4951824,E,5,13,3.0,12.9650,M,-2.901,M,02,3572*7B
$GPRMC,085231.00,A,2232.6064012,N,11405.4951824,E,021.633,268.5,040719,0.0,W,D*28
$GPGGA,085232.00,2232.6062396,N,11405.4888845,E,5,13,3.0,13.0137,M,-2.901,M,02,3572*7D
$GPRMC,085232.00,A,2232.6062396,N,11405.4888845,E,020.672,268.3,040719,0.0,W,D*22
$GPGGA,085233.00,2232.6060305,N,11405.4828765,E,5,13,2.9,13.0909,M,-2.902,M,02,3572*7D
$GPRMC,085233.00,A,2232.6060305,N,11405.4828765,E,019.780,267.3,040719,0.0,W,D*25
$GPGGA,085234.00,2232.6057131,N,11405.4769909,E,5,13,2.5,13.2278,M,-2.902,M,02,3572*76
$GPRMC,085234.00,A,2232.6057131,N,11405.4769909,E,019.897,266.3,040719,0.0,W,D*25
$GPGGA,085235.00,2232.6053855,N,11405.4709754,E,5,12,2.6,13.2382,M,-2.902,M,02,3572*7E
$GPRMC,085235.00,A,2232.6053855,N,11405.4709754,E,020.157,267.0,040719,0.0,W,D*26
$GPGGA,085236.00,2232.6051525,N,11405.4649075,E,5,11,2.6,13.2846,M,-2.903,M,02,3572*75
$GPRMC,085236.00,A,2232.6051525,N,11405.4649075,E,020.229,268.0,040719,0.0,W,D*29
$GPGGA,085237.00,2232.6050251,N,11405.4587171,E,5,11,2.6,13.2997,M,-2.903,M,02,3572*78
$GPRMC,085237.00,A,2232.6050251,N,11405.4587171,E,020.960,269.1,040719,0.0,W,D*2F
$GPGGA,085238.00,2232.6049742,N,11405.4524243,E,5,11,2.6,13.3573,M,-2.903,M,02,3572*74
$GPRMC,085238.00,A,2232.6049742,N,11405.4524243,E,020.820,269.6,040719,0.0,W,D*26
$GPGGA,085239.00,2232.6049211,N,11405.4465009,E,5,11,2.6,13.4267,M,-2.904,M,02,3572*7C
$GPRMC,085239.00,A,2232.6049211,N,11405.4465009,E,018.249,269.3,040719,0.0,W,D*27
$GPGGA,085240.00,2232.6048657,N,11405.4425030,E,5,11,2.6,13.4392,M,-2.904,M,02,3572*70
$GPRMC,085240.00,A,2232.6048657,N,11405.4425030,E,009.999,268.9,040719,0.0,W,D*2D
$GPGGA,085241.00,2232.6048323,N,11405.4404479,E,5,11,2.6,13.4301,M,-2.904,M,02,3572*77
$GPRMC,085241.00,A,2232.6048323,N,11405.4404479,E,005.543,269.1,040719,0.0,W,D*2E
$GPGGA,085242.00,2232.6048094,N,11405.4389529,E,5,11,2.6,13.4536,M,-2.904,M,02,3572*7F
$GPRMC,085242.00,A,2232.6048094,N,11405.4389529,E,004.811,269.4,040719,0.0,W,D*2A
$GPGGA,085243.00,2232.6047972,N,11405.4375839,E,5,14,2.2,13.4045,M,-2.904,M,02,3572*7F
$GPRMC,085243.00,A,2232.6047972,N,11405.4375839,E,004.373,268.8,040719,0.0,W,D*28
$GPGGA,085244.00,2232.6047690,N,11405.4362945,E,5,14,2.1,13.3861,M,-2.904,M,02,3572*7D
$GPRMC,085244.00,A,2232.6047690,N,11405.4362945,E,004.211,269.2,040719,0.0,W,D*2E
$GPGGA,085245.00,2232.6047413,N,11405.4350574,E,5,14,2.1,13.4196,M,-2.904,M,02,3572*7C
$GPRMC,085245.00,A,2232.6047413,N,11405.4350574,E,004.058,268.6,040719,0.0,W,D*23
$GPGGA,085246.00,2232.6047168,N,11405.4338466,E,5,12,2.6,13.4051,M,-2.904,M,02,3572*71
$GPRMC,085246.00,A,2232.6047168,N,11405.4338466,E,004.017,269.3,040719,0.0,W,D*2A
$GPGGA,085247.00,2232.6047019,N,11405.4326472,E,5,12,2.6,13.4372,M,-2.905,M,02,3572*7E
$GPRMC,085247.00,A,2232.6047019,N,11405.4326472,E,003.979,269.3,040719,0.0,W,D*20
$GPGGA,085248.00,2232.6046686,N,11405.4314484,E,5,11,2.6,13.4501,M,-2.905,M,02,3572*79
$GPRMC,085248.00,A,2232.6046686,N,11405.4314484,E,004.018,266.2,040719,0.0,W,D*21
$GPGGA,085249.00,2232.6046443,N,11405.4302519,E,5,11,2.6,13.4718,M,-2.905,M,02,3572*7B
$GPRMC,085249.00,A,2232.6046443,N,11405.4302519,E,003.982,268.9,040719,0.0,W,D*21
$GPGGA,085250.00,2232.6046132,N,11405.4289041,E,5,12,2.9,13.4833,M,-2.905,M,02,3572*70
$GPRMC,085250.00,A,2232.6046132,N,11405.4289041,E,005.226,267.4,040719,0.0,W,D*21
$GPGGA,085251.00,2232.6051456,N,11405.4272593,E,1,12,1.0,15.4609,M,-2.905,M,,3572*73
$GPRMC,085251.00,A,2232.6051456,N,11405.4272593,E,005.352,267.1,040719,0.0,W,A*2D
$GPGGA,085252.00,2232.6044956,N,11405.4260307,E,5,11,2.9,13.8674,M,-2.905,M,02,3572*7E
$GPRMC,085252.00,A,2232.6044956,N,11405.4260307,E,005.257,268.7,040719,0.0,W,D*27
$GPGGA,085253.00,2232.6045442,N,11405.4244292,E,5,11,2.6,14.0139,M,-2.905,M,02,3572*73
$GPRMC,085253.00,A,2232.6045442,N,11405.4244292,E,005.008,268.5,040719,0.0,W,D*2E
$GPGGA,085254.00,2232.6045764,N,11405.4230254,E,5,11,2.9,13.9383,M,-2.905,M,02,3572*78
$GPRMC,085254.00,A,2232.6045764,N,11405.4230254,E,004.175,269.1,040719,0.0,W,D*28
$GPGGA,085255.00,2232.6044908,N,11405.4217642,E,5,11,2.6,13.6323,M,-2.905,M,02,3572*70
$GPRMC,085255.00,A,2232.6044908,N,11405.4217642,E,002.903,268.6,040719,0.0,W,D*23
$GPGGA,085256.00,2232.6044900,N,11405.4211294,E,5,11,2.6,13.6100,M,-2.905,M,02,3572*71
$GPRMC,085256.00,A,2232.6044900,N,11405.4211294,E,001.689,270.2,040719,0.0,W,D*22
$GPGGA,085257.00,2232.6044871,N,11405.4208437,E,5,12,2.6,13.5820,M,-2.905,M,02,3572*7B
$GPRMC,085257.00,A,2232.6044871,N,11405.4208437,E,000.499,265.1,040719,0.0,W,D*26
$GPGGA,085258.00,2232.6044971,N,11405.4208409,E,4,12,2.6,13.4488,M,-2.905,M,02,3572*76
$GPRMC,085258.00,A,2232.6044971,N,11405.4208409,E,000.022,202.9,040719,0.0,W,D*28
$GPGGA,085259.00,2232.6044949,N,11405.4208415,E,4,12,2.6,13.4553,M,-2.905,M,02,3572*76
$GPRMC,085259.00,A,2232.6044949,N,11405.4208415,E,000.024,011.3,040719,0.0,W,D*23
$GPGGA,085300.00,2232.6044914,N,11405.4208397,E,4,12,2.6,13.4593,M,-2.905,M,02,3572*72
$GPRMC,085300.00,A,2232.6044914,N,11405.4208397,E,000.012,170.9,040719,0.0,W,D*22
$GPGGA,085301.00,2232.6044873,N,11405.4208377,E,4,12,2.6,13.4757,M,-2.905,M,02,3572*77
$GPRMC,085301.00,A,2232.6044873,N,11405.4208377,E,000.018,171.6,040719,0.0,W,D*29
$GPGGA,085302.00,2232.6044844,N,11405.4208397,E,4,12,2.6,13.4681,M,-2.905,M,02,3572*74
$GPRMC,085302.00,A,2232.6044844,N,11405.4208397,E,000.022,099.8,040719,0.0,W,D*20
$GPGGA,085303.00,2232.6044856,N,11405.4208188,E,4,13,2.6,13.4625,M,-2.905,M,02,3572*75
$GPRMC,085303.00,A,2232.6044856,N,11405.4208188,E,000.126,287.9,040719,0.0,W,D*27
$GPGGA,085304.00,2232.6044866,N,11405.4208087,E,4,13,2.6,13.4445,M,-2.905,M,02,3572*7B
$GPRMC,085304.00,A,2232.6044866,N,11405.4208087,E,000.041,353.8,040719,0.0,W,D*24
$GPGGA,085305.00,2232.6044813,N,11405.4207394,E,4,13,2.6,13.4480,M,-2.905,M,02,3572*7F
$GPRMC,085305.00,A,2232.6044813,N,11405.4207394,E,000.635,266.1,040719,0.0,W,D*22
$GPGGA,085306.00,2232.6044768,N,11405.4202057,E,4,13,2.6,13.4656,M,-2.905,M,02,3572*7F
$GPRMC,085306.00,A,2232.6044768,N,11405.4202057,E,002.854,268.6,040719,0.0,W,D*29
$GPGGA,085307.00,2232.6044671,N,11405.4188818,E,4,12,2.9,13.4769,M,-2.905,M,02,3572*76
$GPRMC,085307.00,A,2232.6044671,N,11405.4188818,E,004.933,270.5,040719,0.0,W,D*2F
$GPGGA,085308.00,2232.6044429,N,11405.4173166,E,4,12,2.9,13.4724,M,-2.905,M,02,3572*7B
$GPRMC,085308.00,A,2232.6044429,N,11405.4173166,E,005.411,269.3,040719,0.0,W,D*29
$GPGGA,085309.00,2232.6044121,N,11405.4153887,E,4,13,2.6,13.4794,M,-2.906,M,02,3572*75
$GPRMC,085309.00,A,2232.6044121,N,11405.4153887,E,007.104,269.0,040719,0.0,W,D*21
$GPGGA,085310.00,2232.6043797,N,11405.4131362,E,4,13,2.1,13.5021,M,-2.906,M,02,3572*7A
$GPRMC,085310.00,A,2232.6043797,N,11405.4131362,E,007.535,269.1,040719,0.0,W,D*26
$GPGGA,085311.00,2232.6043276,N,11405.4109481,E,4,13,2.5,13.4830,M,-2.906,M,02,3572*7D
$GPRMC,085311.00,A,2232.6043276,N,11405.4109481,E,007.048,268.7,040719,0.0,W,D*24
$GPGGA,085312.00,2232.6042700,N,11405.4091141,E,5,13,4.3,13.4928,M,-2.906,M,02,3572*7B
$GPRMC,085312.00,A,2232.6042700,N,11405.4091141,E,005.576,267.7,040719,0.0,W,D*2E
$GPGGA,085313.00,2232.6042296,N,11405.4075347,E,5,13,2.7,13.5394,M,-2.906,M,02,3572*70
$GPRMC,085313.00,A,2232.6042296,N,11405.4075347,E,005.212,268.7,040719,0.0,W,D*21
$GPGGA,085314.00,2232.6041868,N,11405.4056800,E,5,11,4.9,13.5471,M,-2.906,M,02,3572*70
$GPRMC,085314.00,A,2232.6041868,N,11405.4056800,E,006.695,269.2,040719,0.0,W,D*2B
$GPGGA,085315.00,2232.6041465,N,11405.4031101,E,5,12,2.5,13.5786,M,-2.906,M,02,3572*7B
$GPRMC,085315.00,A,2232.6041465,N,11405.4031101,E,009.739,269.2,040719,0.0,W,D*2A
$GPGGA,085316.00,2232.6041298,N,11405.3999998,E,5,11,2.6,13.6123,M,-2.907,M,02,3572*73
$GPRMC,085316.00,A,2232.6041298,N,11405.3999998,E,010.700,269.7,040719,0.0,W,D*2E
$GPGGA,085317.00,2232.6041262,N,11405.3966608,E,5,10,4.7,13.6221,M,-2.907,M,02,3572*76
$GPRMC,085317.00,A,2232.6041262,N,11405.3966608,E,011.004,270.4,040719,0.0,W,D*25
$GPGGA,085318.00,2232.6041549,N,11405.3935659,E,4,10,4.7,13.6317,M,-2.907,M,02,3572*70
$GPRMC,085318.00,A,2232.6041549,N,11405.3935659,E,009.711,270.0,040719,0.0,W,D*28
$GPGGA,085319.00,2232.6042063,N,11405.3909061,E,4,10,4.3,13.6611,M,-2.907,M,02,3572*7A
$GPRMC,085319.00,A,2232.6042063,N,11405.3909061,E,008.244,270.6,040719,0.0,W,D*27
$GPGGA,085320.00,2232.6042227,N,11405.3888328,E,4,10,4.7,13.6618,M,-2.907,M,02,3572*79
$GPRMC,085320.00,A,2232.6042227,N,11405.3888328,E,006.328,272.9,040719,0.0,W,D*21
$GPGGA,085321.00,2232.6042555,N,11405.3871280,E,4,10,4.7,13.6642,M,-2.907,M,02,3572*70
$GPRMC,085321.00,A,2232.6042555,N,11405.3871280,E,005.357,272.5,040719,0.0,W,D*20
$GPGGA,085322.00,2232.6055937,N,11405.3864465,E,0,01,0.0,15.7403,M,-2.907,M,,*72
$GPRMC,085322.00,V,2232.6055937,N,11405.3864465,E,005.080,270.3,040719,0.0,W,A*3B
$GPGGA,085323.00,2232.6043849,N,11405.3836358,E,1,06,1.5,16.2865,M,-2.908,M,,3572*76
$GPRMC,085323.00,A,2232.6043849,N,11405.3836358,E,006.497,265.1,040719,0.0,W,A*2B
$GPGGA,085324.00,2232.6047327,N,11405.3814821,E,1,06,1.5,17.8817,M,-2.908,M,,3572*7D
$GPRMC,085324.00,A,2232.6047327,N,11405.3814821,E,007.350,269.0,040719,0.0,W,A*2E
$GPGGA,085325.00,2232.5875619,N,11405.3723136,E,1,06,1.3,24.5885,M,-2.908,M,,3572*7A
$GPRMC,085325.00,A,2232.5875619,N,11405.3723136,E,007.729,267.3,040719,0.0,W,A*2E
$GPGGA,085326.00,2232.5853072,N,11405.3690071,E,1,07,1.1,23.6863,M,-2.908,M,,3572*72
$GPRMC,085326.00,A,2232.5853072,N,11405.3690071,E,007.513,270.8,040719,0.0,W,A*2F
$GPGGA,085327.00,2232.6045279,N,11405.3748896,E,1,06,1.5,13.2651,M,-2.908,M,,3572*7E
$GPRMC,085327.00,A,2232.6045279,N,11405.3748896,E,005.929,270.5,040719,0.0,W,A*24
$GPGGA,085328.00,2232.6056703,N,11405.3744160,E,5,11,4.4,13.8383,M,-2.908,M,02,3572*73
$GPRMC,085328.00,A,2232.6056703,N,11405.3744160,E,004.267,271.0,040719,0.0,W,D*2C
$GPGGA,085329.00,2232.6058126,N,11405.3733605,E,5,10,5.0,12.5285,M,-2.908,M,02,3572*76
$GPRMC,085329.00,A,2232.6058126,N,11405.3733605,E,003.735,272.2,040719,0.0,W,D*22
$GPGGA,085330.00,2232.6048707,N,11405.3721051,E,1,07,3.5,9.1997,M,-2.908,M,,3572*4B
$GPRMC,085330.00,A,2232.6048707,N,11405.3721051,E,003.728,273.5,040719,0.0,W,A*25
$GPGGA,085331.00,2232.6033533,N,11405.3706126,E,5,10,11.9,8.3334,M,-2.908,M,02,3572*78
$GPRMC,085331.00,A,2232.6033533,N,11405.3706126,E,003.859,272.3,040719,0.0,W,D*22
$GPGGA,085332.00,2232.6039129,N,11405.3688982,E,0,01,0.0,18.1173,M,-2.908,M,,*70
$GPRMC,085332.00,V,2232.6039129,N,11405.3688982,E,005.202,252.1,040719,0.0,W,A*35
$GPGGA,085333.00,2232.6052454,N,11405.3667857,E,2,06,6.5,4.2016,M,-2.909,M,02,3572*41
$GPRMC,085333.00,A,2232.6052454,N,11405.3667857,E,006.146,265.8,040719,0.0,W,D*21
$GPGGA,085334.00,2232.6047308,N,11405.3664442,E,2,07,4.7,14.6099,M,-2.909,M,02,3572*74
$GPRMC,085334.00,A,2232.6047308,N,11405.3664442,E,005.929,269.7,040719,0.0,W,D*26
$GPGGA,085335.00,2232.6031952,N,11405.3639758,E,5,10,4.7,14.3228,M,-2.909,M,02,3572*7D
$GPRMC,085335.00,A,2232.6031952,N,11405.3639758,E,005.633,268.9,040719,0.0,W,D*28
$GPGGA,085336.00,2232.6038681,N,11405.3626840,E,5,10,4.7,14.1036,M,-2.909,M,02,3572*71
$GPRMC,085336.00,A,2232.6038681,N,11405.3626840,E,003.793,272.6,040719,0.0,W,D*22
$GPGGA,085337.00,2232.6042287,N,11405.3616729,E,5,10,4.7,13.6951,M,-2.909,M,02,3572*74
$GPRMC,085337.00,A,2232.6042287,N,11405.3616729,E,003.537,265.8,040719,0.0,W,D*2B
$GPGGA,085338.00,2232.6044878,N,11405.3606996,E,5,10,4.7,13.3049,M,-2.909,M,02,3572*79
$GPRMC,085338.00,A,2232.6044878,N,11405.3606996,E,003.523,269.0,040719,0.0,W,D*22
$GPGGA,085339.00,2232.6045436,N,11405.3597172,E,5,10,4.2,13.3520,M,-2.909,M,02,3572*79
$GPRMC,085339.00,A,2232.6045436,N,11405.3597172,E,003.163,269.9,040719,0.0,W,D*24
$GPGGA,085340.00,2232.6047332,N,11405.3588846,E,5,11,4.2,13.5490,M,-2.909,M,02,3572*7B
$GPRMC,085340.00,A,2232.6047332,N,11405.3588846,E,002.768,266.0,040719,0.0,W,D*21
$GPGGA,085341.00,2232.6049803,N,11405.3581623,E,5,10,4.2,13.5843,M,-2.909,M,02,3572*7A
$GPRMC,085341.00,A,2232.6049803,N,11405.3581623,E,002.321,275.6,040719,0.0,W,D*2E
$GPGGA,085342.00,2232.6046865,N,11405.3575052,E,5,10,4.2,13.5803,M,-2.909,M,02,3572*79
$GPRMC,085342.00,A,2232.6046865,N,11405.3575052,E,001.260,263.6,040719,0.0,W,D*29
$GPGGA,085343.00,2232.6046590,N,11405.3572578,E,5,10,4.2,13.5862,M,-2.909,M,02,3572*72
$GPRMC,085343.00,A,2232.6046590,N,11405.3572578,E,000.531,266.5,040719,0.0,W,D*21
$GPGGA,085344.00,2232.6046582,N,11405.3572125,E,5,10,4.2,13.5754,M,-2.909,M,02,3572*70
$GPRMC,085344.00,A,2232.6046582,N,11405.3572125,E,000.076,050.6,040719,0.0,W,D*2B
$GPGGA,085345.00,2232.6046544,N,11405.3572152,E,5,10,4.2,13.5627,M,-2.909,M,02,3572*7E
$GPRMC,085345.00,A,2232.6046544,N,11405.3572152,E,000.008,103.1,040719,0.0,W,D*29
$GPGGA,085346.00,2232.6046601,N,11405.3572193,E,5,11,2.9,13.5598,M,-2.909,M,02,3572*79
$GPRMC,085346.00,A,2232.6046601,N,11405.3572193,E,000.025,022.6,040719,0.0,W,D*2F
$GPGGA,085347.00,2232.6046585,N,11405.3572242,E,5,11,2.9,13.5659,M,-2.909,M,02,3572*76
$GPRMC,085347.00,A,2232.6046585,N,11405.3572242,E,000.017,224.7,040719,0.0,W,D*2A
$GPGGA,085348.00,2232.6046476,N,11405.3572244,E,5,10,2.9,13.5613,M,-2.909,M,02,3572*7D
$GPRMC,085348.00,A,2232.6046476,N,11405.3572244,E,000.020,006.3,040719,0.0,W,D*2C
$GPGGA,085349.00,2232.6046421,N,11405.3572089,E,5,10,2.9,13.5618,M,-2.909,M,02,3572*76
$GPRMC,085349.00,A,2232.6046421,N,11405.3572089,E,000.109,279.4,040719,0.0,W,D*2B
$GPGGA,085350.00,2232.6046334,N,11405.3571640,E,5,10,2.9,13.5401,M,-2.909,M,02,3572*77
$GPRMC,085350.00,A,2232.6046334,N,11405.3571640,E,000.167,277.7,040719,0.0,W,D*25
$GPGGA,085351.00,2232.6046372,N,11405.3571060,E,5,11,2.9,13.5311,M,-2.909,M,02,3572*77
$GPRMC,085351.00,A,2232.6046372,N,11405.3571060,E,000.218,266.3,040719,0.0,W,D*2D
$GPGGA,085352.00,2232.6046477,N,11405.3570282,E,5,11,3.9,13.5105,M,-2.909,M,02,3572*7F
$GPRMC,085352.00,A,2232.6046477,N,11405.3570282,E,000.290,274.7,040719,0.0,W,D*24
$GPGGA,085353.00,2232.6046316,N,11405.3567806,E,5,10,2.9,13.5389,M,-2.909,M,02,3572*78
$GPRMC,085353.00,A,2232.6046316,N,11405.3567806,E,001.243,274.3,040719,0.0,W,D*2E
$GPGGA,085354.00,2232.6046269,N,11405.3562407,E,5,10,2.9,13.5357,M,-2.909,M,02,3572*7D
$GPRMC,085354.00,A,2232.6046269,N,11405.3562407,E,002.022,269.7,040719,0.0,W,D*26
$GPGGA,085355.00,2232.6046027,N,11405.3555068,E,5,11,3.3,13.5336,M,-2.909,M,02,3572*70
$GPRMC,085355.00,A,2232.6046027,N,11405.3555068,E,002.693,266.3,040719,0.0,W,D*21
$GPGGA,085356.00,2232.6046013,N,11405.3547608,E,5,10,3.6,13.5131,M,-2.909,M,02,3572*76
$GPRMC,085356.00,A,2232.6046013,N,11405.3547608,E,002.284,269.4,040719,0.0,W,D*2C
$GPGGA,085357.00,2232.6060690,N,11405.3542641,E,1,09,2.2,14.1768,M,-2.909,M,,3572*74
$GPRMC,085357.00,A,2232.6060690,N,11405.3542641,E,001.621,265.7,040719,0.0,W,A*2E
$GPGGA,085358.00,2232.6050173,N,11405.3540143,E,5,09,3.6,14.2099,M,-2.909,M,02,3572*7C
$GPRMC,085358.00,A,2232.6050173,N,11405.3540143,E,000.882,276.4,040719,0.0,W,D*2D
$GPGGA,085359.00,2232.6050134,N,11405.3537255,E,5,09,3.6,14.4515,M,-2.909,M,02,3572*7D
$GPRMC,085359.00,A,2232.6050134,N,11405.3537255,E,000.836,276.0,040719,0.0,W,D*20
$GPGGA,085400.00,2232.6049424,N,11405.3536176,E,5,11,3.6,14.6460,M,-2.909,M,02,3572*71
$GPRMC,085400.00,A,2232.6049424,N,11405.3536176,E,000.061,011.2,040719,0.0,W,D*2F
$GPGGA,085401.00,2232.6048151,N,11405.3536291,E,5,11,3.6,14.6314,M,-2.909,M,02,3572*78
$GPRMC,085401.00,A,2232.6048151,N,11405.3536291,E,000.057,354.3,040719,0.0,W,D*24
$GPGGA,085402.00,2232.6047505,N,11405.3536129,E,5,11,3.6,14.5849,M,-2.909,M,02,3572*71
$GPRMC,085402.00,A,2232.6047505,N,11405.3536129,E,000.046,169.9,040719,0.0,W,D*2B
$GPGGA,085403.00,2232.6047409,N,11405.3536215,E,5,11,3.6,14.5615,M,-2.909,M,02,3572*76
$GPRMC,085403.00,A,2232.6047409,N,11405.3536215,E,000.021,131.9,040719,0.0,W,D*27
$GPGGA,085404.00,2232.6047094,N,11405.3536141,E,5,11,4.8,14.4523,M,-2.909,M,02,3572*7D
$GPRMC,085404.00,A,2232.6047094,N,11405.3536141,E,000.005,196.3,040719,0.0,W,D*23
$GPGGA,085405.00,2232.6046695,N,11405.3536052,E,5,11,4.8,14.3704,M,-2.909,M,02,3572*79
$GPRMC,085405.00,A,2232.6046695,N,11405.3536052,E,000.073,176.4,040719,0.0,W,D*2F
$GPGGA,085406.00,2232.6047264,N,11405.3536029,E,5,11,4.8,14.1379,M,-2.909,M,02,3572*71
$GPRMC,085406.00,A,2232.6047264,N,11405.3536029,E,000.049,013.5,040719,0.0,W,D*21
$GPGGA,085407.00,2232.6045313,N,11405.3534201,E,5,11,2.9,13.6146,M,-2.909,M,02,3572*70
$GPRMC,085407.00,A,2232.6045313,N,11405.3534201,E,000.028,208.0,040719,0.0,W,D*23
$GPGGA,085408.00,2232.6045336,N,11405.3534190,E,5,11,4.8,13.6451,M,-2.909,M,02,3572*77
$GPRMC,085408.00,A,2232.6045336,N,11405.3534190,E,000.016,303.4,040719,0.0,W,D*23
$GPGGA,085409.00,2232.6045313,N,11405.3534141,E,5,11,3.6,13.5992,M,-2.909,M,02,3572*75
$GPRMC,085409.00,A,2232.6045313,N,11405.3534141,E,000.015,339.2,040719,0.0,W,D*25
$GPGGA,085410.00,2232.6045324,N,11405.3534155,E,5,11,3.6,13.5828,M,-2.909,M,02,3572*7C
$GPRMC,085410.00,A,2232.6045324,N,11405.3534155,E,000.024,129.7,040719,0.0,W,D*28
$GPGGA,085411.00,2232.6045270,N,11405.3534150,E,5,11,3.6,13.6193,M,-2.909,M,02,3572*72
$GPRMC,085411.00,A,2232.6045270,N,11405.3534150,E,000.009,056.7,040719,0.0,W,D*2A
$GPGGA,085412.00,2232.6045274,N,11405.3534159,E,5,11,2.9,13.6352,M,-2.909,M,02,3572*7D
$GPRMC,085412.00,A,2232.6045274,N,11405.3534159,E,000.028,335.3,040719,0.0,W,D*25
$GPGGA,085413.00,2232.6045231,N,11405.3534149,E,5,11,4.8,13.6423,M,-2.909,M,02,3572*7A
$GPRMC,085413.00,A,2232.6045231,N,11405.3534149,E,000.054,176.2,040719,0.0,W,D*2B
$GPGGA,085414.00,2232.6045244,N,11405.3534145,E,5,11,3.6,13.6505,M,-2.909,M,02,3572*7F
$GPRMC,085414.00,A,2232.6045244,N,11405.3534145,E,000.015,099.6,040719,0.0,W,D*23
$GPGGA,085415.00,2232.6045185,N,11405.3534174,E,5,11,3.9,13.6633,M,-2.909,M,02,3572*7B
$GPRMC,085415.00,A,2232.6045185,N,11405.3534174,E,000.010,041.1,040719,0.0,W,D*29
$GPGGA,085416.00,2232.6045153,N,11405.3534161,E,5,10,4.8,13.6690,M,-2.909,M,02,3572*79
$GPRMC,085416.00,A,2232.6045153,N,11405.3534161,E,000.031,186.8,040719,0.0,W,D*25
$GPGGA,085417.00,2232.6045135,N,11405.3534121,E,5,11,3.6,13.6712,M,-2.909,M,02,3572*7F
$GPRMC,085417.00,A,2232.6045135,N,11405.3534121,E,000.066,357.5,040719,0.0,W,D*21
$GPGGA,085418.00,2232.6045081,N,11405.3534133,E,5,10,4.8,13.6906,M,-2.909,M,02,3572*7E
$GPRMC,085418.00,A,2232.6045081,N,11405.3534133,E,000.030,182.1,040719,0.0,W,D*2E
$GPGGA,085419.00,2232.6045000,N,11405.3534134,E,5,11,3.6,13.6933,M,-2.909,M,02,3572*7F
$GPRMC,085419.00,A,2232.6045000,N,11405.3534134,E,000.031,189.7,040719,0.0,W,D*2D
$GPGGA,085420.00,2232.6045042,N,11405.3534138,E,5,11,3.6,13.6709,M,-2.909,M,02,3572*78
$GPRMC,085420.00,A,2232.6045042,N,11405.3534138,E,000.057,354.3,040719,0.0,W,D*2B
$GPGGA,085421.00,2232.6044895,N,11405.3534142,E,5,11,3.6,13.7291,M,-2.909,M,02,3572*72
$GPRMC,085421.00,A,2232.6044895,N,11405.3534142,E,000.053,004.0,040719,0.0,W,D*25
$GPGGA,085422.00,2232.6044773,N,11405.3534096,E,5,11,3.6,13.7508,M,-2.909,M,02,3572*79
$GPRMC,085422.00,A,2232.6044773,N,11405.3534096,E,000.066,027.3,040719,0.0,W,D*2D
$GPGGA,085423.00,2232.6044693,N,11405.3534055,E,5,11,4.8,13.7630,M,-2.909,M,02,3572*79
$GPRMC,085423.00,A,2232.6044693,N,11405.3534055,E,000.095,184.4,040719,0.0,W,D*2F
$GPGGA,085424.00,2232.6044660,N,11405.3534014,E,5,11,3.6,13.7578,M,-2.909,M,02,3572*71
$GPRMC,085424.00,A,2232.6044660,N,11405.3534014,E,000.005,168.0,040719,0.0,W,D*2E
$GPGGA,085425.00,2232.6044512,N,11405.3534042,E,5,11,3.9,13.7972,M,-2.909,M,02,3572*7C
$GPRMC,085425.00,A,2232.6044512,N,11405.3534042,E,000.022,123.5,040719,0.0,W,D*25
$GPGGA,085426.00,2232.6044468,N,11405.3534045,E,5,11,3.6,13.7730,M,-2.909,M,02,3572*73
$GPRMC,085426.00,A,2232.6044468,N,11405.3534045,E,000.024,006.0,040719,0.0,W,D*28
$GPGGA,085427.00,2232.6044326,N,11405.3533992,E,5,11,3.6,13.7628,M,-2.909,M,02,3572*73
$GPRMC,085427.00,A,2232.6044326,N,11405.3533992,E,000.033,182.9,040719,0.0,W,D*22
$GPGGA,085428.00,2232.6044205,N,11405.3534029,E,5,11,3.6,13.7655,M,-2.909,M,02,3572*78
$GPRMC,085428.00,A,2232.6044205,N,11405.3534029,E,000.014,162.7,040719,0.0,W,D*26
$GPGGA,085429.00,2232.6044152,N,11405.3534097,E,5,11,3.6,13.7495,M,-2.909,M,02,3572*73
$GPRMC,085429.00,A,2232.6044152,N,11405.3534097,E,000.060,017.8,040719,0.0,W,D*2C
$GPGGA,085430.00,2232.6044027,N,11405.3534080,E,5,11,3.6,13.7387,M,-2.909,M,02,3572*7A
$GPRMC,085430.00,A,2232.6044027,N,11405.3534080,E,000.026,001.0,040719,0.0,W,D*2C
$GPGGA,085431.00,2232.6043829,N,11405.3534091,E,5,11,3.6,13.7541,M,-2.909,M,02,3572*76
$GPRMC,085431.00,A,2232.6043829,N,11405.3534091,E,000.054,188.3,040719,0.0,W,D*2A
$GPGGA,085432.00,2232.6043649,N,11405.3534096,E,5,11,3.6,13.7735,M,-2.909,M,02,3572*7B
$GPRMC,085432.00,A,2232.6043649,N,11405.3534096,E,000.038,187.6,040719,0.0,W,D*26
$GPGGA,085433.00,2232.6043637,N,11405.3534078,E,5,11,3.6,13.7920,M,-2.909,M,02,3572*79
$GPRMC,085433.00,A,2232.6043637,N,11405.3534078,E,000.030,186.3,040719,0.0,W,D*22
$GPGGA,085434.00,2232.6043768,N,11405.3534077,E,5,10,3.6,13.8086,M,-2.909,M,02,3572*71
$GPRMC,085434.00,A,2232.6043768,N,11405.3534077,E,000.006,067.0,040719,0.0,W,D*29
$GPGGA,085435.00,2232.6043918,N,11405.3534056,E,5,10,3.6,13.7927,M,-2.909,M,02,3572*77
$GPRMC,085435.00,A,2232.6043918,N,11405.3534056,E,000.020,348.6,040719,0.0,W,D*2E
$GPGGA,085436.00,2232.6043943,N,11405.3533974,E,5,10,3.6,13.7743,M,-2.909,M,02,3572*78
$GPRMC,085436.00,A,2232.6043943,N,11405.3533974,E,000.021,037.5,040719,0.0,W,D*24
$GPGGA,085437.00,2232.6041454,N,11405.3533538,E,5,10,3.6,13.6208,M,-2.909,M,02,3572*7F
$GPRMC,085437.00,A,2232.6041454,N,11405.3533538,E,000.013,119.3,040719,0.0,W,D*22
$GPGGA,085438.00,2232.6043716,N,11405.3534468,E,5,10,3.6,13.7559,M,-2.909,M,02,3572*76
$GPRMC,085438.00,A,2232.6043716,N,11405.3534468,E,000.032,333.4,040719,0.0,W,D*27
$GPGGA,085439.00,2232.6045321,N,11405.3535023,E,5,10,3.6,14.0822,M,-2.909,M,02,3572*7A
$GPRMC,085439.00,A,2232.6045321,N,11405.3535023,E,000.028,173.8,040719,0.0,W,D*2B
$GPGGA,085440.00,2232.6046837,N,11405.3535557,E,5,10,3.6,14.3272,M,-2.909,M,02,3572*71
$GPRMC,085440.00,A,2232.6046837,N,11405.3535557,E,000.015,304.4,040719,0.0,W,D*2C
$GPGGA,085441.00,2232.6048733,N,11405.3536107,E,5,10,3.6,14.5429,M,-2.909,M,02,3572*79
$GPRMC,085441.00,A,2232.6048733,N,11405.3536107,E,000.020,097.8,040719,0.0,W,D*29
$GPGGA,085442.00,2232.6050670,N,11405.3536274,E,5,10,3.6,14.6121,M,-2.909,M,02,3572*7C
$GPRMC,085442.00,A,2232.6050670,N,11405.3536274,E,000.011,106.4,040719,0.0,W,D*25
$GPGGA,085443.00,2232.6051189,N,11405.3536211,E,5,10,3.6,14.5648,M,-2.909,M,02,3572*75
$GPRMC,085443.00,A,2232.6051189,N,11405.3536211,E,000.014,181.1,040719,0.0,W,D*28
$GPGGA,085444.00,2232.6050313,N,11405.3535976,E,5,10,3.6,14.3700,M,-2.909,M,02,3572*70
$GPRMC,085444.00,A,2232.6050313,N,11405.3535976,E,000.055,239.2,040719,0.0,W,D*20
$GPGGA,085445.00,2232.6045441,N,11405.3534142,E,5,10,3.9,13.5343,M,-2.909,M,02,3572*76
$GPRMC,085445.00,A,2232.6045441,N,11405.3534142,E,000.049,291.9,040719,0.0,W,D*2F
$GPGGA,085446.00,2232.6045577,N,11405.3534001,E,5,09,6.5,13.5240,M,-2.909,M,02,3572*74
$GPRMC,085446.00,A,2232.6045577,N,11405.3534001,E,000.031,297.4,040719,0.0,W,D*2A
$GPGGA,085447.00,2232.6045865,N,11405.3534189,E,4,10,6.5,13.5512,M,-2.909,M,02,3572*73
$GPRMC,085447.00,A,2232.6045865,N,11405.3534189,E,000.073,097.6,040719,0.0,W,D*22
$GPGGA,085448.00,2232.6045993,N,11405.3534168,E,4,10,6.5,13.5001,M,-2.909,M,02,3572*7C
$GPRMC,085448.00,A,2232.6045993,N,11405.3534168,E,000.127,012.1,040719,0.0,W,D*20
$GPGGA,085449.00,2232.6045874,N,11405.3534141,E,4,11,5.6,13.5266,M,-2.909,M,02,3572*7C
$GPRMC,085449.00,A,2232.6045874,N,11405.3534141,E,000.052,108.6,040719,0.0,W,D*2C
$GPGGA,085450.00,2232.6045822,N,11405.3534148,E,5,09,6.5,13.5308,M,-2.909,M,02,3572*7F
$GPRMC,085450.00,A,2232.6045822,N,11405.3534148,E,000.116,011.1,040719,0.0,W,D*21
$GPGGA,085451.00,2232.6045818,N,11405.3534120,E,5,09,6.5,13.5056,M,-2.909,M,02,3572*71
$GPRMC,085451.00,A,2232.6045818,N,11405.3534120,E,000.024,352.1,040719,0.0,W,D*23
$GPGGA,085452.00,2232.6046019,N,11405.3534146,E,5,09,6.5,13.4425,M,-2.909,M,02,3572*79
$GPRMC,085452.00,A,2232.6046019,N,11405.3534146,E,000.026,336.1,040719,0.0,W,D*2A
$GPGGA,085453.00,2232.6046134,N,11405.3534189,E,4,10,4.7,13.4565,M,-2.909,M,02,3572*79
$GPRMC,085453.00,A,2232.6046134,N,11405.3534189,E,000.086,041.7,040719,0.0,W,D*29
$GPGGA,085454.00,2232.6046063,N,11405.3534138,E,4,10,4.7,13.4581,M,-2.909,M,02,3572*7D
$GPRMC,085454.00,A,2232.6046063,N,11405.3534138,E,000.081,180.2,040719,0.0,W,D*29
$GPGGA,085455.00,2232.6046053,N,11405.3534158,E,4,11,4.7,13.4704,M,-2.909,M,02,3572*77
$GPRMC,085455.00,A,2232.6046053,N,11405.3534158,E,000.036,162.9,040719,0.0,W,D*26
$GPGGA,085456.00,2232.6046039,N,11405.3534202,E,4,11,4.7,13.4956,M,-2.909,M,02,3572*7D
$GPRMC,085456.00,A,2232.6046039,N,11405.3534202,E,000.096,166.6,040719,0.0,W,D*24
$GPGGA,085457.00,2232.6046004,N,11405.3534172,E,4,10,4.7,13.5002,M,-2.909,M,02,3572*7E
$GPRMC,085457.00,A,2232.6046004,N,11405.3534172,E,000.033,295.0,040719,0.0,W,D*29
$GPGGA,085458.00,2232.6046170,N,11405.3534217,E,4,10,4.7,13.4614,M,-2.909,M,02,3572*73
$GPRMC,085458.00,A,2232.6046170,N,11405.3534217,E,000.027,204.3,040719,0.0,W,D*2A
$GPGGA,085459.00,2232.6046146,N,11405.3534212,E,4,11,3.6,13.4828,M,-2.909,M,02,3572*74
$GPRMC,085459.00,A,2232.6046146,N,11405.3534212,E,000.032,041.6,040719,0.0,W,D*29
$GPGGA,085500.00,2232.6046034,N,11405.3534148,E,4,11,3.6,13.4635,M,-2.909,M,02,3572*73
$GPRMC,085500.00,A,2232.6046034,N,11405.3534148,E,000.051,226.3,040719,0.0,W,D*2F
$GPGGA,085501.00,2232.6045854,N,11405.3533886,E,4,11,5.6,13.5103,M,-2.909,M,02,3572*76
$GPRMC,085501.00,A,2232.6045854,N,11405.3533886,E,000.063,264.7,040719,0.0,W,D*2C
$GPGGA,085502.00,2232.6045833,N,11405.3533418,E,4,11,3.6,13.4654,M,-2.909,M,02,3572*7D
$GPRMC,085502.00,A,2232.6045833,N,11405.3533418,E,000.142,296.0,040719,0.0,W,D*2D
$GPGGA,085503.00,2232.6045941,N,11405.3532889,E,4,11,3.6,13.4433,M,-2.909,M,02,3572*7E
$GPRMC,085503.00,A,2232.6045941,N,11405.3532889,E,000.220,264.0,040719,0.0,W,D*27
$GPGGA,085504.00,2232.6045899,N,11405.3532625,E,4,11,3.6,13.4170,M,-2.909,M,02,3572*77
$GPRMC,085504.00,A,2232.6045899,N,11405.3532625,E,000.027,290.5,040719,0.0,W,D*27
$GPGGA,085505.00,2232.6045749,N,11405.3532616,E,4,11,3.6,13.4153,M,-2.909,M,02,3572*75
$GPRMC,085505.00,A,2232.6045749,N,11405.3532616,E,000.132,188.7,040719,0.0,W,D*29
$GPGGA,085506.00,2232.6045728,N,11405.3532583,E,4,11,3.6,13.3820,M,-2.909,M,02,3572*74
$GPRMC,085506.00,A,2232.6045728,N,11405.3532583,E,000.035,235.8,040719,0.0,W,D*2E
$GPGGA,085507.00,2232.6045531,N,11405.3532560,E,4,11,2.9,13.3889,M,-2.909,M,02,3572*7F
$GPRMC,085507.00,A,2232.6045531,N,11405.3532560,E,000.057,188.8,040719,0.0,W,D*29
$GPGGA,085508.00,2232.6045394,N,11405.3532531,E,4,11,2.9,13.3831,M,-2.909,M,02,3572*7E
$GPRMC,085508.00,A,2232.6045394,N,11405.3532531,E,000.012,138.2,040719,0.0,W,D*2B
$GPGGA,085509.00,2232.6045442,N,11405.3532555,E,4,11,2.9,13.3701,M,-2.909,M,02,3572*7D
$GPRMC,085509.00,A,2232.6045442,N,11405.3532555,E,000.020,310.0,040719,0.0,W,D*2F
$GPGGA,085510.00,2232.6045496,N,11405.3532567,E,4,11,3.6,13.3648,M,-2.909,M,02,3572*7F
$GPRMC,085510.00,A,2232.6045496,N,11405.3532567,E,000.012,024.4,040719,0.0,W,D*2E
$GPGGA,085511.00,2232.6045483,N,11405.3532579,E,4,11,3.6,13.3568,M,-2.909,M,02,3572*74
$GPRMC,085511.00,A,2232.6045483,N,11405.3532579,E,000.038,146.6,040719,0.0,W,D*2B
$GPGGA,085512.00,2232.6045469,N,11405.3532532,E,4,11,3.6,13.3383,M,-2.909,M,02,3572*7F
$GPRMC,085512.00,A,2232.6045469,N,11405.3532532,E,000.079,347.7,040719,0.0,W,D*24
$GPGGA,085513.00,2232.6045389,N,11405.3532525,E,4,11,2.9,13.3409,M,-2.909,M,02,3572*7A
$GPRMC,085513.00,A,2232.6045389,N,11405.3532525,E,000.050,174.5,040719,0.0,W,D*21
$GPGGA,085514.00,2232.6045445,N,11405.3532544,E,4,11,2.9,13.3441,M,-2.909,M,02,3572*71
$GPRMC,085514.00,A,2232.6045445,N,11405.3532544,E,000.080,168.0,040719,0.0,W,D*23
$GPGGA,085515.00,2232.6045356,N,11405.3532527,E,4,11,2.9,13.3589,M,-2.909,M,02,3572*75
$GPRMC,085515.00,A,2232.6045356,N,11405.3532527,E,000.031,172.7,040719,0.0,W,D*24
$GPGGA,085516.00,2232.6045358,N,11405.3532518,E,4,11,3.6,13.3534,M,-2.909,M,02,3572*7C
$GPRMC,085516.00,A,2232.6045358,N,11405.3532518,E,000.007,162.9,040719,0.0,W,D*2F
$GPGGA,085517.00,2232.6045510,N,11405.3532497,E,4,11,2.9,13.3368,M,-2.909,M,02,3572*70
$GPRMC,085517.00,A,2232.6045510,N,11405.3532497,E,000.056,354.0,040719,0.0,W,D*28
$GPGGA,085518.00,2232.6045570,N,11405.3532496,E,4,11,2.9,13.3275,M,-2.909,M,02,3572*75
$GPRMC,085518.00,A,2232.6045570,N,11405.3532496,E,000.047,017.7,040719,0.0,W,D*23
$GPGGA,085519.00,2232.6045620,N,11405.3532480,E,4,11,2.9,13.3197,M,-2.909,M,02,3572*7A
$GPRMC,085519.00,A,2232.6045620,N,11405.3532480,E,000.038,346.2,040719,0.0,W,D*29
$GPGGA,085520.00,2232.6045513,N,11405.3532479,E,4,11,3.6,13.3327,M,-2.909,M,02,3572*72
$GPRMC,085520.00,A,2232.6045513,N,11405.3532479,E,000.125,184.1,040719,0.0,W,D*24
$GPGGA,085521.00,2232.6045547,N,11405.3532442,E,4,11,2.9,13.3241,M,-2.909,M,02,3572*75
$GPRMC,085521.00,A,2232.6045547,N,11405.3532442,E,000.022,229.3,040719,0.0,W,D*2C
$GPGGA,085522.00,2232.6045584,N,11405.3532446,E,4,11,2.9,13.3306,M,-2.909,M,02,3572*7F
$GPRMC,085522.00,A,2232.6045584,N,11405.3532446,E,000.041,024.3,040719,0.0,W,D*2E
$GPGGA,085523.00,2232.6045543,N,11405.3532428,E,4,11,2.9,13.3414,M,-2.909,M,02,3572*79
$GPRMC,085523.00,A,2232.6045543,N,11405.3532428,E,000.029,353.0,040719,0.0,W,D*22
$GPGGA,085524.00,2232.6045638,N,11405.3531104,E,4,11,2.9,13.3141,M,-2.909,M,02,3572*7C
$GPRMC,085524.00,A,2232.6045638,N,11405.3531104,E,000.958,280.6,040719,0.0,W,D*24
$GPGGA,085525.00,2232.6045469,N,11405.3528199,E,4,11,2.9,13.3218,M,-2.909,M,02,3572*78
$GPRMC,085525.00,A,2232.6045469,N,11405.3528199,E,000.794,269.6,040719,0.0,W,D*26
$GPGGA,085526.00,2232.6045398,N,11405.3524683,E,4,11,2.9,13.3164,M,-2.909,M,02,3572*7A
$GPRMC,085526.00,A,2232.6045398,N,11405.3524683,E,001.706,267.0,040719,0.0,W,D*2E
